[
  {
    "name": "경산(서울)",
    "address": "경상북도 경산시 진량읍 대학로 1089",
    "lat": 35.878972,
    "lon": 128.809087
  },
  {
    "name": "경주(부산)",
    "address": "경북 경주시 내남면 경부고속도로 59",
    "lat": 35.724076,
    "lon": 129.192472
  },
  {
    "name": "고삼호수",
    "address": "경기도 안성시 고삼면 삼은리 산 19-6",
    "lat": 37.078215,
    "lon": 127.295931
  },
  {
    "name": "고성(통영)",
    "address": "경남 고성군 대가면 통영대전고속도로 29",
    "lat": 35.051811,
    "lon": 128.262726
  },
  {
    "name": "광양항",
    "address": "전라남도 광양시 도이동 781",
    "lat": 34.908213,
    "lon": 127.669529
  },
  {
    "name": "광양항 황금",
    "address": "전라남도 광양시 황금동 항만대로 200(황금동 1108-1)",
    "lat": 34.897158,
    "lon": 127.637198
  },
  {
    "name": "군산(서울)",
    "address": "전라북도 군산시 나포면 서해안고속도로 148",
    "lat": 36.01825,
    "lon": 126.797846
  },
  {
    "name": "군위(부산)",
    "address": "대구광역시 군위군 군위읍 경북대로 4084",
    "lat": 36.267705,
    "lon": 128.575687
  },
  {
    "name": "김제(새만금)",
    "address": "전북특별자치도 김제시 흥사동 하정로 93",
    "lat": 35.841993,
    "lon": 126.902977
  },
  {
    "name": "김제(전주)",
    "address": "전북특별자치도 김제시 백산면 하정2길 126",
    "lat": 35.839743,
    "lon": 126.898561
  },
  {
    "name": "김천(부산)",
    "address": "경상북도 김천시 농소면 경부고속도로 193",
    "lat": 36.129051,
    "lon": 128.164863
  },
  {
    "name": "김천(서울)",
    "address": "경상북도 김천시 농소면 경부고속도로 194",
    "lat": 36.130856,
    "lon": 128.16378
  },
  {
    "name": "김해 진영",
    "address": "경상남도 김해시 진영읍 김해대로 245",
    "lat": 35.307314,
    "lon": 128.715656
  },
  {
    "name": "남성주참외(양평)",
    "address": "경상북도 성주군 용암면 중부내륙고속도로 76",
    "lat": 35.857249,
    "lon": 128.320019
  },
  {
    "name": "남성주참외(창원)",
    "address": "경상북도 성주군 선남면 중부내륙고속도로 77",
    "lat": 35.868831,
    "lon": 128.316547
  },
  {
    "name": "남한강",
    "address": "경기도 양평군 강상면 중부내륙고속도로 298",
    "lat": 37.483225,
    "lon": 127.4673
  },
  {
    "name": "매송(목포)",
    "address": "경기도 화성시 매송면 서해안고속도로 315",
    "lat": 37.264635,
    "lon": 126.888049
  },
  {
    "name": "매송(서울)",
    "address": "경기도 화성시 매송면 서해안고속도로 316",
    "lat": 37.265219,
    "lon": 126.892632
  },
  {
    "name": "문경(양평)",
    "address": "경북 문경 중부내륙고속도로 174",
    "lat": 36.620634,
    "lon": 128.152554
  },
  {
    "name": "문경(창원)",
    "address": "경북 문경 중부내륙고속도로 173",
    "lat": 36.620523,
    "lon": 128.149943
  },
  {
    "name": "문막(인천)",
    "address": "강원도 원주시 문막읍 개나루길 13",
    "lat": 37.297749,
    "lon": 127.817021
  },
  {
    "name": "문의청남대(영덕)",
    "address": "충청북도 청주시 상당구 문의면 당진영덕고속도로 124",
    "lat": 36.542416,
    "lon": 127.484975
  },
  {
    "name": "문의청남대(청주)",
    "address": "충청북도 청주시 상당구 문의면 당진영덕고속도로 123",
    "lat": 36.544249,
    "lon": 127.483503
  },
  {
    "name": "밀양영남루(울산)",
    "address": "경상남도 밀양시 무안면 함양울산고속도로 88",
    "lat": 35.490071,
    "lon": 128.664603
  },
  {
    "name": "밀양영남루(함양)",
    "address": "경상남도 밀양시 무안면 함양울산고속도로 87-1",
    "lat": 35.491626,
    "lon": 128.66427
  },
  {
    "name": "벌곡(대전)",
    "address": "충청남도 논산시 벌곡면 벌곡로 9-58",
    "lat": 36.210508,
    "lon": 127.270525
  },
  {
    "name": "부산신항",
    "address": "경상남도 창원시 진해구 신항북로 320",
    "lat": 35.0872,
    "lon": 128.799262
  },
  {
    "name": "부산신항남컨",
    "address": "부산광역시 강서구 신항남로 507(성북동 1521)",
    "lat": 35.067508,
    "lon": 128.833759
  },
  {
    "name": "부산신항서컨",
    "address": "경상남도 창원시 진해구 수도동 307",
    "lat": 35.07945,
    "lon": 128.761154
  },
  {
    "name": "부산신항웅동",
    "address": "경상남도 창원시 진해구 신항10로 98",
    "lat": 35.090255,
    "lon": 128.775903
  },
  {
    "name": "부산항감만",
    "address": "부산광역시 남구 신선로 168",
    "lat": 35.110338,
    "lon": 129.081849
  },
  {
    "name": "부산항용당",
    "address": "부산광역시 남구 용당동 168-1",
    "lat": 35.11206,
    "lon": 129.093653
  },
  {
    "name": "부안고려청자(목포)",
    "address": "전라북도 부안군 주산면 서해안고속도로 103",
    "lat": 35.671817,
    "lon": 126.732188
  },
  {
    "name": "부안고려청자(서울)",
    "address": "전라북도 부안군 주산면 서해안고속도로 106",
    "lat": 35.671761,
    "lon": 126.734465
  },
  {
    "name": "성주(양평)",
    "address": "경북 성주군 초전면 중부내륙고속도로 98",
    "lat": 36.008954,
    "lon": 128.261745
  },
  {
    "name": "성주(창원)",
    "address": "경북 성주군 초전면 중부내륙고속도로 97",
    "lat": 36.009898,
    "lon": 128.259523
  },
  {
    "name": "신탄진(서울)",
    "address": "대전 대덕구 산업단지로 27",
    "lat": 36.428123,
    "lon": 127.418565
  },
  {
    "name": "안성(서울)",
    "address": "경기도 안성시 원곡면 경부고속도로 372",
    "lat": 37.07677,
    "lon": 127.132501
  },
  {
    "name": "언양(서울)",
    "address": "울산광역시 울주군 언양읍 경부고속도로 44",
    "lat": 35.598756,
    "lon": 129.141533
  },
  {
    "name": "여산(순천)",
    "address": "전라북도 익산시 여산면 호남고속도로 191",
    "lat": 36.04847,
    "lon": 127.102347
  },
  {
    "name": "여산(천안)",
    "address": "전라북도 익산시 여산면 호남고속도로 192",
    "lat": 36.04897,
    "lon": 127.105013
  },
  {
    "name": "여수",
    "address": "전라남도 여수시 여수산단로 140",
    "lat": 34.797725,
    "lon": 127.662447
  },
  {
    "name": "여주(강릉)",
    "address": "경기도 여주시 가남면 여주남로 722",
    "lat": 37.237726,
    "lon": 127.568322
  },
  {
    "name": "영덕(영덕)",
    "address": "경상북도 영덕군 남정면 양성리 산8-1",
    "lat": 36.28057,
    "lon": 129.363895
  },
  {
    "name": "영산(창원)",
    "address": "경상남도 창녕군 영산면 장척호수길 56-110",
    "lat": 35.429826,
    "lon": 128.495785
  },
  {
    "name": "영천(대구)",
    "address": "경북 영천 임고 운주로 791",
    "lat": 36.053371,
    "lon": 129.042731
  },
  {
    "name": "영천(포항)",
    "address": "경북 영천 임고 운주로 777",
    "lat": 36.051093,
    "lon": 129.044453
  },
  {
    "name": "예산(당진)",
    "address": "충청남도 예산군 신양면 당진영덕고속도로 33",
    "lat": 36.619626,
    "lon": 126.846587
  },
  {
    "name": "예산(대전)",
    "address": "충청남도 예산군 대흥면 탄방리 136-5",
    "lat": 36.623459,
    "lon": 126.839782
  },
  {
    "name": "오수(순천)",
    "address": "전라북도 임실군 오수면 순천완주고속도로 73",
    "lat": 35.541001,
    "lon": 127.309388
  },
  {
    "name": "오수(완주)",
    "address": "전라북도 임실군 오수면 순천완주고속도로 74",
    "lat": 35.540251,
    "lon": 127.31161
  },
  {
    "name": "옥산(부산)",
    "address": "충청북도 청주시 흥덕구 옥산면 경부고속도로 309",
    "lat": 36.657625,
    "lon": 127.369845
  },
  {
    "name": "옥천(만남)",
    "address": "충북 옥천 옥천 중앙로 135",
    "lat": 36.308694,
    "lon": 127.571914
  },
  {
    "name": "옥천(부산)",
    "address": "충청북도 옥천군 옥천읍 서대구일로 265-19",
    "lat": 36.296667,
    "lon": 127.596356
  },
  {
    "name": "울산남구",
    "address": "울산광역시 남구 상개동 50",
    "lat": 35.504907,
    "lon": 129.32013
  },
  {
    "name": "울산북구",
    "address": "울산광역시 북구 산업로 1515(신천동 643)",
    "lat": 35.64428,
    "lon": 129.341626
  },
  {
    "name": "울산신항",
    "address": "울산광역시 남구 신항로716번길 13",
    "lat": 35.460218,
    "lon": 129.364182
  },
  {
    "name": "울주(울산)",
    "address": "울산광역시 울주군 삼동면 함양울산고속도로 134",
    "lat": 35.511016,
    "lon": 129.131313
  },
  {
    "name": "울주(함양)",
    "address": "울산광역시 울주군 삼동면 함양울산고속도로 133",
    "lat": 35.512821,
    "lon": 129.12748
  },
  {
    "name": "음성(하남)",
    "address": "충청북도 음성군 삼성면 중부고속도로 52",
    "lat": 37.022084,
    "lon": 127.484498
  },
  {
    "name": "이서(순천)",
    "address": "전라북도 완주군 이서면 호남고속도로 161",
    "lat": 35.804109,
    "lon": 127.023856
  },
  {
    "name": "이서(천안)",
    "address": "전라북도 완주군 이서면 호남고속도로 162",
    "lat": 35.801831,
    "lon": 127.0258
  },
  {
    "name": "인천항",
    "address": "인천광역시 중구 신흥동 3가 70",
    "lat": 37.432031,
    "lon": 126.624433
  },
  {
    "name": "입장(서울)",
    "address": "충남 천안 서북 입장 연곡길 407",
    "lat": 36.943063,
    "lon": 127.193608
  },
  {
    "name": "장흥정남진",
    "address": "전라남도 장흥군 부산면 남해고속도로 41",
    "lat": 34.720897,
    "lon": 126.930011
  },
  {
    "name": "처인",
    "address": "경기도 용인시 처인구 모현읍 곡현로 619번길 36",
    "lat": 37.340684,
    "lon": 127.220185
  },
  {
    "name": "청주(서울)",
    "address": "충청북도 청주시 흥덕구 옥산면 경부고속도로 318",
    "lat": 36.716146,
    "lon": 127.349263
  },
  {
    "name": "추풍령(부산)",
    "address": "경상북도 김천시 봉산면 경부고속도로 213",
    "lat": 36.200597,
    "lon": 128.000238
  },
  {
    "name": "추풍령(서울)",
    "address": "경상북도 김천시 봉산면 경부고속도로 214-1",
    "lat": 36.199931,
    "lon": 128.003571
  },
  {
    "name": "충주(양평)",
    "address": "충청북도 충주시 중앙탑면 중부내륙고속도로 230-1",
    "lat": 37.024058,
    "lon": 127.837994
  },
  {
    "name": "충주(창원)",
    "address": "충청북도 충주시 중앙탑면 중부내륙고속도로 231",
    "lat": 37.022336,
    "lon": 127.836994
  },
  {
    "name": "칠곡(부산)",
    "address": "경북 칠곡 왜관 경부고속도로 159",
    "lat": 36.019371,
    "lon": 128.428452
  },
  {
    "name": "칠곡(서울)",
    "address": "경상북도 칠곡군 왜관읍 경부고속도로 158",
    "lat": 36.012094,
    "lon": 128.430841
  },
  {
    "name": "칠서(양평)",
    "address": "경상남도 함안군 칠서면 계룡로 122-1",
    "lat": 35.370916,
    "lon": 128.496952
  },
  {
    "name": "평사(부산)",
    "address": "경상북도 경산시 진량읍 경부고속도로 105",
    "lat": 35.886111,
    "lon": 128.868887
  },
  {
    "name": "평택",
    "address": "경기도 포승읍 하한모길 229(만호리 668)",
    "lat": 36.983529,
    "lon": 126.884663
  },
  {
    "name": "평택",
    "address": "경기도 평택시 청북읍 평택제천고속도로 6",
    "lat": 37.044744,
    "lon": 126.944574
  },
  {
    "name": "포항(포항)",
    "address": "경상북도 포항시 북구 동해대로 3373",
    "lat": 36.147916,
    "lon": 129.074283
  },
  {
    "name": "함안(부산)",
    "address": "경상남도 함안군 군북면 현포로 205",
    "lat": 35.293479,
    "lon": 128.348077
  }
]